[{"city": "Valencia", "country": "Spain", "geolocation": {"type": "Point", "coordinates": [-0.4816249907016754, 39.48929977416992]}, "iata": "VLC", "name": "Valencia Airport"}, {"city": "Mumbai", "country": "India", "geolocation": {"type": "Point", "coordinates": [72.8678970337, 19.088699340799998]}, "iata": "BOM", "name": "Chhatrapati Shivaji International Airport"}, {"city": "Venice", "country": "Italy", "geolocation": {"type": "Point", "coordinates": [12.3519, 45.505299]}, "iata": "VCE", "name": "Venice Marco Polo Airport"}, {"city": "Barcelona", "country": "Spain", "geolocation": {"type": "Point", "coordinates": [2.0784599781036, 41.297100067139]}, "iata": "BCN", "name": "Barcelona International Airport"}, {"city": "Seattle", "country": "United States", "geolocation": {"type": "Point", "coordinates": [-122.30899810791016, 47.44900131225586]}, "iata": "SEA", "name": "Seattle Tacoma International Airport"}, {"city": "San Francisco", "country": "United States", "geolocation": {"type": "Point", "coordinates": [-122.375, 37.61899948120117]}, "iata": "SFO", "name": "San Francisco International Airport"}, {"city": "Athens", "country": "Greece", "geolocation": {"type": "Point", "coordinates": [23.944499969499997, 37.9364013672]}, "iata": "ATH", "name": "Eleftherios Venizelos International Airport"}, {"city": "Frankfurt", "country": "Germany", "geolocation": {"type": "Point", "coordinates": [8.5705556, 50.033333299999995]}, "iata": "FRA", "name": "Frankfurt am Main International Airport"}, {"city": "London", "country": "United Kingdom", "geolocation": {"type": "Point", "coordinates": [-0.36833301186561584, 51.87469863891602]}, "iata": "LON", "name": "London Luton Airport"}, {"city": "Biggin Hill", "country": "United Kingdom", "geolocation": {"type": "Point", "coordinates": [0.032499998807900006, 51.330799102799986]}, "iata": "LON", "name": "London Biggin Hill Airport"}, {"city": "London", "country": "United Kingdom", "geolocation": {"type": "Point", "coordinates": [-0.19027799367904666, 51.14810180664063]}, "iata": "LON", "name": "London Gatwick Airport"}, {"city": "London", "country": "United Kingdom", "geolocation": {"type": "Point", "coordinates": [0.055277999999999994, 51.505299]}, "iata": "LON", "name": "London City Airport"}, {"city": "London", "country": "United Kingdom", "geolocation": {"type": "Point", "coordinates": [-0.461941, 51.4706]}, "iata": "LON", "name": "London Heathrow Airport"}, {"city": "Southend", "country": "United Kingdom", "geolocation": {"type": "Point", "coordinates": [0.6955559849739075, 51.5713996887207]}, "iata": "LON", "name": "Southend Airport"}, {"city": "London", "country": "United Kingdom", "geolocation": {"type": "Point", "coordinates": [0.23499999940400002, 51.8849983215]}, "iata": "LON", "name": "London Stansted Airport"}, {"city": "Hong Kong", "country": "Hong Kong", "geolocation": {"type": "Point", "coordinates": [113.915000916, 22.3089008331]}, "iata": "HKG", "name": "Chek Lap Kok International Airport"}, {"city": "Porto", "country": "Portugal", "geolocation": {"type": "Point", "coordinates": [-8.68138980865, 41.248100280799996]}, "iata": "OPO", "name": "Francisco de S\u00e1 Carneiro Airport"}, {"city": "Fuerteventura", "country": "Spain", "geolocation": {"type": "Point", "coordinates": [-13.863800048828125, 28.452699661254893]}, "iata": "FUE", "name": "Fuerteventura Airport"}, {"city": "Palermo", "country": "Italy", "geolocation": {"type": "Point", "coordinates": [13.091, 38.175999]}, "iata": "PMO", "name": "Falcone\u2013Borsellino Airport"}, {"city": "Cancun", "country": "Mexico", "geolocation": {"type": "Point", "coordinates": [-86.8770980835, 21.036500930800003]}, "iata": "CUN", "name": "Canc\u00fan International Airport"}, {"city": "Manchester", "country": "United Kingdom", "geolocation": {"type": "Point", "coordinates": [-2.2749500274658203, 53.35369873046875]}, "iata": "MAN", "name": "Manchester Airport"}, {"city": "Los Angeles", "country": "United States", "geolocation": {"type": "Point", "coordinates": [-118.40799709999999, 33.94250107]}, "iata": "LAX", "name": "Los Angeles International Airport"}, {"city": "Hanoi", "country": "Vietnam", "geolocation": {"type": "Point", "coordinates": [105.80699920654295, 21.221200942993164]}, "iata": "HAN", "name": "Noi Bai International Airport"}, {"city": "Berlin", "country": "Germany", "geolocation": {"type": "Point", "coordinates": [13.522500038147, 52.38000106811499]}, "iata": "BER", "name": "Berlin-Sch\u00f6nefeld International Airport"}, {"city": "Berlin", "country": "Germany", "geolocation": {"type": "Point", "coordinates": [13.287699699400001, 52.559700012200004]}, "iata": "BER", "name": "Berlin-Tegel International Airport"}, {"city": "Las Vegas", "country": "United States", "geolocation": {"type": "Point", "coordinates": [-115.15200039999999, 36.08010101]}, "iata": "LAS", "name": "McCarran International Airport"}, {"city": "Singapore", "country": "Singapore", "geolocation": {"type": "Point", "coordinates": [103.994003, 1.35019]}, "iata": "SIN", "name": "Singapore Changi Airport"}, {"city": "Rome", "country": "Italy", "geolocation": {"type": "Point", "coordinates": [12.5949, 41.7994]}, "iata": "ROM", "name": "Ciampino\u2013G. B. Pastine International Airport"}, {"city": "Rome", "country": "Italy", "geolocation": {"type": "Point", "coordinates": [12.238888900000001, 41.800277799999996]}, "iata": "ROM", "name": "Leonardo da Vinci\u2013Fiumicino Airport"}, {"city": "Miami", "country": "United States", "geolocation": {"type": "Point", "coordinates": [-80.29060363769531, 25.79319953918457]}, "iata": "MIA", "name": "Miami International Airport"}, {"city": "Sydney", "country": "Australia", "geolocation": {"type": "Point", "coordinates": [151.177001953125, -33.94609832763672]}, "iata": "SYD", "name": "Sydney Kingsford Smith International Airport"}, {"city": "Dubai", "country": "United Arab Emirates", "geolocation": {"type": "Point", "coordinates": [55.3643989563, 25.252799987800003]}, "iata": "DXB", "name": "Dubai International Airport"}, {"city": "Newark", "country": "United States", "geolocation": {"type": "Point", "coordinates": [-74.168701171875, 40.69250106811523]}, "iata": "NYC", "name": "Newark Liberty International Airport"}, {"city": "White Plains", "country": "United States", "geolocation": {"type": "Point", "coordinates": [-73.70760345458984, 41.06700134277344]}, "iata": "NYC", "name": "Westchester County Airport"}, {"city": "New York", "country": "United States", "geolocation": {"type": "Point", "coordinates": [-73.87259674, 40.77719879]}, "iata": "NYC", "name": "La Guardia Airport"}, {"city": "New York", "country": "United States", "geolocation": {"type": "Point", "coordinates": [-73.77890015, 40.63980103]}, "iata": "NYC", "name": "John F Kennedy International Airport"}, {"city": "Paris", "country": "France", "geolocation": {"type": "Point", "coordinates": [2.441390037536621, 48.969398498535156]}, "iata": "PAR", "name": "Paris-Le Bourget Airport"}, {"city": "Paris", "country": "France", "geolocation": {"type": "Point", "coordinates": [2.54999995232, 49.0127983093]}, "iata": "PAR", "name": "Charles de Gaulle International Airport"}, {"city": "Paris", "country": "France", "geolocation": {"type": "Point", "coordinates": [2.3794444, 48.7233333]}, "iata": "PAR", "name": "Paris-Orly Airport"}, {"city": "Bangkok", "country": "Thailand", "geolocation": {"type": "Point", "coordinates": [100.607002258, 13.912599563599999]}, "iata": "BKK", "name": "Don Mueang International Airport"}, {"city": "Bangkok", "country": "Thailand", "geolocation": {"type": "Point", "coordinates": [100.74700164794922, 13.681099891662598]}, "iata": "BKK", "name": "Suvarnabhumi Airport"}]